[{"IATACode":"THR","Title":"مهرآباد","CityTitle":"تهران","Latitude":"35.691532","Longitude":"51.32187","CityCode":"THR","Popular":true,"NameEn":null},{"IATACode":"MHD","Title":"شهید هاشمی نژاد","CityTitle":"مشهد","Latitude":"36.227173","Longitude":"59.64165","CityCode":"MHD","Popular":true,"NameEn":null},{"IATACode":"KIH","Title":"جزیره کیش","CityTitle":"کیش","Latitude":"26.532276","Longitude":"53.972084","CityCode":"KIH","Popular":true,"NameEn":null},{"IATACode":"AWZ","Title":"اهواز","CityTitle":"اهواز","Latitude":"31.34292","Longitude":"48.74668","CityCode":"AWZ","Popular":true,"NameEn":null},{"IATACode":"SYZ","Title":"شهید دستغیب","CityTitle":"شیراز","Latitude":"29.54613","Longitude":"52.58997","CityCode":"SYZ","Popular":true,"NameEn":null},{"IATACode":"IFN","Title":"شهید بهشتی","CityTitle":"اصفهان","Latitude":"32.745686","Longitude":"51.87638","CityCode":"IFN","Popular":true,"NameEn":null},{"IATACode":"GSM","Title":"جزیره قشم","CityTitle":"قشم","Latitude":"26.757778","Longitude":"55.905277","CityCode":"GSM","Popular":true,"NameEn":null},{"IATACode":"TBZ","Title":"شهید مدنی","CityTitle":"تبریز","Latitude":"38.12285","Longitude":"46.244274","CityCode":"TBZ","Popular":true,"NameEn":null},{"IATACode":"BND","Title":"بندرعباس","CityTitle":"بندرعباس","Latitude":"27.21059","Longitude":"56.368385","CityCode":"BND","Popular":true,"NameEn":null},{"IATACode":"KSH","Title":"شهید اشرفی","CityTitle":"کرمانشاه","Latitude":"34.355915","Longitude":"47.145126","CityCode":"KSH","Popular":true,"NameEn":null},{"IATACode":"ABD","Title":"آبادان","CityTitle":"آبادان","Latitude":"30.363905","Longitude":"48.226597","CityCode":"ABD","Popular":false,"NameEn":null},{"IATACode":"AKW","Title":"آغاجاری","CityTitle":"آغاجاری","Latitude":"30.75","Longitude":"49.683334","CityCode":"AKW","Popular":false,"NameEn":null},{"IATACode":"AEU","Title":"جزیره ابوموسی","CityTitle":"ابوموسی","Latitude":"25.875475","Longitude":"55.033913","CityCode":"AEU","Popular":false,"NameEn":null},{"IATACode":"AJK","Title":"اراک","CityTitle":"اراک","Latitude":"34.13333","Longitude":"49.833332","CityCode":"AJK","Popular":false,"NameEn":null},{"IATACode":"ADU","Title":"اردبیل","CityTitle":"اردبیل","Latitude":"38.323826","Longitude":"48.42125","CityCode":"ADU","Popular":false,"NameEn":null},{"IATACode":"OMH","Title":"ارومیه","CityTitle":"ارومیه","Latitude":"37.662525","Longitude":"45.05877","CityCode":"OMH","Popular":false,"NameEn":null},{"IATACode":"IHR","Title":"ایرانشهر","CityTitle":"ایرانشهر","Latitude":"32.4207","Longitude":"53.6824","CityCode":"IHR","Popular":false,"NameEn":null},{"IATACode":"IIL","Title":"شهدای ایلام","CityTitle":"ایلام","Latitude":"33.58637","Longitude":"46.399235","CityCode":"IIL","Popular":false,"NameEn":null},{"IATACode":"BJB","Title":"بجنورد","CityTitle":"بجنورد","Latitude":"37.48972","Longitude":"57.30885","CityCode":"BJB","Popular":false,"NameEn":null},{"IATACode":"BXR","Title":"بم","CityTitle":"بم","Latitude":"29.080082","Longitude":"58.449356","CityCode":"BXR","Popular":false,"NameEn":null},{"IATACode":"IAQ","Title":"بندر بهرگان","CityTitle":"بندر بهرگان","Latitude":"NULL","Longitude":"NULL","CityCode":"IAQ","Popular":false,"NameEn":null},{"IATACode":"BDH","Title":"بندرلنگه","CityTitle":"بندرلنگه","Latitude":"26.529486","Longitude":"54.829147","CityCode":"BDH","Popular":false,"NameEn":null},{"IATACode":"MRX","Title":"ماهشهر","CityTitle":"بندرماهشهر","Latitude":"30.535557","Longitude":"49.16722","CityCode":"MRX","Popular":false,"NameEn":null},{"IATACode":"BUZ","Title":"بوشهر","CityTitle":"بوشهر","Latitude":"28.958284","Longitude":"50.825424","CityCode":"BUZ","Popular":false,"NameEn":null},{"IATACode":"XBJ","Title":"بیرجند","CityTitle":"بیرجند","Latitude":"32.89905","Longitude":"59.25499","CityCode":"XBJ","Popular":false,"NameEn":null},{"IATACode":"KHA","Title":"پیرانشهر","CityTitle":"پیرانشهر","Latitude":"36.733334","Longitude":"45.15","CityCode":"KHA","Popular":false,"NameEn":null},{"IATACode":"TEW","Title":"توحید","CityTitle":"جم","Latitude":"NULL","Longitude":"NULL","CityCode":"TEW","Popular":false,"NameEn":null},{"IATACode":"JAR","Title":"جهرم","CityTitle":"جهرم","Latitude":"NULL","Longitude":"NULL","CityCode":"JAR","Popular":false,"NameEn":null},{"IATACode":"JYR","Title":"جیرفت","CityTitle":"جیرفت","Latitude":"28.7244","Longitude":"57.6683","CityCode":"JYR","Popular":false,"NameEn":null},{"IATACode":"ZBR","Title":"کنارک","CityTitle":"چابهار","Latitude":"25.436478","Longitude":"60.379562","CityCode":"ZBR","Popular":false,"NameEn":null},{"IATACode":"KHK","Title":"خارک","CityTitle":"خارک","Latitude":"29.261667","Longitude":"50.323612","CityCode":"KHK","Popular":false,"NameEn":null},{"IATACode":"KHD","Title":"خرم آباد","CityTitle":"خرم آباد","Latitude":"33.43861","Longitude":"48.280834","CityCode":"KHD","Popular":false,"NameEn":null},{"IATACode":"KHY","Title":"خوی","CityTitle":"خوی","Latitude":"38.42917","Longitude":"44.97139","CityCode":"KHY","Popular":false,"NameEn":null},{"IATACode":"DEF","Title":"دزفول","CityTitle":"دزفول","Latitude":"32.4317","Longitude":"48.3989","CityCode":"DEF","Popular":false,"NameEn":null},{"IATACode":"RZR","Title":"رامسر","CityTitle":"رامسر","Latitude":"36.904625","Longitude":"50.68244","CityCode":"RZR","Popular":false,"NameEn":null},{"IATACode":"RAS","Title":"رشت","CityTitle":"رشت","Latitude":"37.321815","Longitude":"49.619587","CityCode":"RAS","Popular":false,"NameEn":null},{"IATACode":"RJN","Title":"رفسنجان","CityTitle":"رفسنجان","Latitude":"30.296944","Longitude":"56.056667","CityCode":"RJN","Popular":false,"NameEn":null},{"IATACode":"ACZ","Title":"زابل","CityTitle":"زابل","Latitude":"31.087694","Longitude":"61.542244","CityCode":"ACZ","Popular":false,"NameEn":null},{"IATACode":"ZAH","Title":"زاهدان","CityTitle":"زاهدان","Latitude":"29.475756","Longitude":"60.90033","CityCode":"ZAH","Popular":false,"NameEn":null},{"IATACode":"JWN","Title":"زنجان","CityTitle":"زنجان","Latitude":"36.7737007141","Longitude":"48.3594017029","CityCode":"JWN","Popular":false,"NameEn":null},{"IATACode":"SRY","Title":"ساری","CityTitle":"ساری","Latitude":"36.635727","Longitude":"53.197277","CityCode":"SRY","Popular":false,"NameEn":null},{"IATACode":"AFZ","Title":"سبزوار","CityTitle":"سبزوار","Latitude":"36.171513","Longitude":"57.60332","CityCode":"AFZ","Popular":false,"NameEn":null},{"IATACode":"CKT","Title":"الماس سرخس","CityTitle":"سرخس","Latitude":"36.488056","Longitude":"61.07","CityCode":"CKT","Popular":false,"NameEn":null},{"IATACode":"SDG","Title":"سنندج","CityTitle":"سنندج","Latitude":"35.251472","Longitude":"47.013767","CityCode":"SDG","Popular":false,"NameEn":null},{"IATACode":"SYJ","Title":"سیرجان","CityTitle":"سیرجان","Latitude":"29.550123","Longitude":"55.664917","CityCode":"SYJ","Popular":false,"NameEn":null},{"IATACode":"SXI","Title":"جزیره سیری","CityTitle":"سیری","Latitude":"25.916668","Longitude":"54.533333","CityCode":"SXI","Popular":false,"NameEn":null},{"IATACode":"RUD","Title":"شاهرود","CityTitle":"شاهرود","Latitude":"59.9448","Longitude":"10.6382","CityCode":"RUD","Popular":false,"NameEn":null},{"IATACode":"CQD","Title":"شهرکرد","CityTitle":"شهرکرد","Latitude":"32.294453","Longitude":"50.837536","CityCode":"CQD","Popular":false,"NameEn":null},{"IATACode":"TCX","Title":"طبس","CityTitle":"طبس","Latitude":"33.667168","Longitude":"56.895557","CityCode":"TCX","Popular":false,"NameEn":null},{"IATACode":"PGU","Title":"خلیج فارس","CityTitle":"عسلویه","Latitude":"36.9243","Longitude":"-111.451","CityCode":"PGU","Popular":false,"NameEn":null},{"IATACode":"GZW","Title":"قزوین","CityTitle":"قزوین","Latitude":"NULL","Longitude":"NULL","CityCode":"GZW","Popular":false,"NameEn":null},{"IATACode":"KKS","Title":"فرودگاه کاشان","CityTitle":"کاشان","Latitude":"53.2","Longitude":"63.55","CityCode":"KKS","Popular":false,"NameEn":null},{"IATACode":"PYK","Title":"پیام","CityTitle":"کرج","Latitude":"35.76582","Longitude":"50.83623","CityCode":"PYK","Popular":false,"NameEn":null},{"IATACode":"KER","Title":"کرمان","CityTitle":"کرمان","Latitude":"30.258778","Longitude":"56.96192","CityCode":"KER","Popular":false,"NameEn":null},{"IATACode":"KLM","Title":"کلاله","CityTitle":"کلاله","Latitude":"NULL","Longitude":"NULL","CityCode":"KLM","Popular":false,"NameEn":null},{"IATACode":"KNR","Title":"کنگان","CityTitle":"کنگان","Latitude":"27.818056","Longitude":"52.350834","CityCode":"KNR","Popular":false,"NameEn":null},{"IATACode":"GCH","Title":"نفت گچساران","CityTitle":"گچساران","Latitude":"NULL","Longitude":"NULL","CityCode":"GCH","Popular":false,"NameEn":null},{"IATACode":"GBT","Title":"گرگان","CityTitle":"گرگان","Latitude":"36.90851","Longitude":"54.410515","CityCode":"GBT","Popular":false,"NameEn":null},{"IATACode":"LRR","Title":"لار","CityTitle":"لارستان","Latitude":"27.66969","Longitude":"54.38276","CityCode":"LRR","Popular":false,"NameEn":null},{"IATACode":"LFM","Title":"لامرد","CityTitle":"لامرد","Latitude":"27.3739","Longitude":"53.1911","CityCode":"LFM","Popular":false,"NameEn":null},{"IATACode":"LVP","Title":"جزیره لاوان","CityTitle":"لاوان","Latitude":"26.810278","Longitude":"53.35611","CityCode":"LVP","Popular":false,"NameEn":null},{"IATACode":"QOM","Title":"ماکو","CityTitle":"ماکو","Latitude":"NULL","Longitude":"NULL","CityCode":"QOM","Popular":false,"NameEn":null},{"IATACode":"ACP","Title":"سهند","CityTitle":"مراغه","Latitude":"37.347244","Longitude":"46.145115","CityCode":"ACP","Popular":false,"NameEn":null},{"IATACode":"NSH","Title":"نوشهر","CityTitle":"نوشهر","Latitude":"36.666668","Longitude":"51.5","CityCode":"NSH","Popular":false,"NameEn":null},{"IATACode":"HDM","Title":"همدان","CityTitle":"همدان","Latitude":"34.867146","Longitude":"48.53732","CityCode":"HDM","Popular":false,"NameEn":null},{"IATACode":"YES","Title":"یاسوج","CityTitle":"یاسوج","Latitude":"34.4382","Longitude":"-104.611","CityCode":"YES","Popular":false,"NameEn":null},{"IATACode":"AZD","Title":"شهید صدوقی","CityTitle":"یزد","Latitude":"31.903603","Longitude":"54.283264","CityCode":"AZD","Popular":false,"NameEn":null}]